[
    {
        "id": "547310",
        "nazev": "Praha-Čakovice",
        "obec": "554782",
        "pos": {
            "lat": 50.15330741320796,
            "lon": 14.528757498871126
        },
        "typ": "castMesta"
    },
    {
        "id": "547361",
        "nazev": "Praha 14",
        "obec": "554782",
        "pos": {
            "lat": 50.10272526309682,
            "lon": 14.552160990898935
        },
        "typ": "castMesta"
    },
    {
        "id": "551317",
        "nazev": "Brno-Chrlice",
        "obec": "582786",
        "pos": {
            "lat": 49.13119968270988,
            "lon": 16.65251527025026
        },
        "typ": "castMesta"
    },
    {
        "id": "547107",
        "nazev": "Praha 12",
        "obec": "554782",
        "pos": {
            "lat": 50.01007298660354,
            "lon": 14.406932274139196
        },
        "typ": "castMesta"
    },
    {
        "id": "547174",
        "nazev": "Praha 17",
        "obec": "554782",
        "pos": {
            "lat": 50.070507946084795,
            "lon": 14.30091174396887
        },
        "typ": "castMesta"
    },
    {
        "id": "551422",
        "nazev": "Brno-Ořešín",
        "obec": "582786",
        "pos": {
            "lat": 49.27991865046646,
            "lon": 16.610225825402846
        },
        "typ": "castMesta"
    },
    {
        "id": "500089",
        "nazev": "Praha 2",
        "obec": "554782",
        "pos": {
            "lat": 50.070545354494364,
            "lon": 14.423597800456545
        },
        "typ": "castMesta"
    },
    {
        "id": "575020",
        "nazev": "Pardubice VIII",
        "obec": "555134",
        "pos": {
            "lat": 50.0079779559345,
            "lon": 15.86575889306513
        },
        "typ": "castMesta"
    },
    {
        "id": "500054",
        "nazev": "Praha 1",
        "obec": "554782",
        "pos": {
            "lat": 50.08783679317711,
            "lon": 14.424132200124049
        },
        "typ": "castMesta"
    },
    {
        "id": "554243",
        "nazev": "Pustkovec",
        "obec": "554821",
        "pos": {
            "lat": 49.84134025619302,
            "lon": 18.16669625631603
        },
        "typ": "castMesta"
    },
    {
        "id": "554286",
        "nazev": "Mariánské Hory a Hulváky",
        "obec": "554821",
        "pos": {
            "lat": 49.840320900512424,
            "lon": 18.229302033598703
        },
        "typ": "castMesta"
    },
    {
        "id": "554308",
        "nazev": "Petřkovice",
        "obec": "554821",
        "pos": {
            "lat": 49.87263576840263,
            "lon": 18.25484592732858
        },
        "typ": "castMesta"
    },
    {
        "id": "554324",
        "nazev": "Lhotka",
        "obec": "554821",
        "pos": {
            "lat": 49.85850306603122,
            "lon": 18.228524434948312
        },
        "typ": "castMesta"
    },
    {
        "id": "554332",
        "nazev": "Hošťálkovice",
        "obec": "554821",
        "pos": {
            "lat": 49.84761540826706,
            "lon": 18.21365262874472
        },
        "typ": "castMesta"
    },
    {
        "id": "554367",
        "nazev": "Nová Ves",
        "obec": "554821",
        "pos": {
            "lat": 49.82878188373414,
            "lon": 18.22620493277695
        },
        "typ": "castMesta"
    },
    {
        "id": "554375",
        "nazev": "Proskovice",
        "obec": "554821",
        "pos": {
            "lat": 49.75232882877228,
            "lon": 18.192569769273675
        },
        "typ": "castMesta"
    },
    {
        "id": "554430",
        "nazev": "Michálkovice",
        "obec": "554821",
        "pos": {
            "lat": 49.83792522888675,
            "lon": 18.35014177672533
        },
        "typ": "castMesta"
    },
    {
        "id": "554537",
        "nazev": "Radvanice a Bartovice",
        "obec": "554821",
        "pos": {
            "lat": 49.81384340735579,
            "lon": 18.334336749168795
        },
        "typ": "castMesta"
    },
    {
        "id": "554561",
        "nazev": "Krásné Pole",
        "obec": "554821",
        "pos": {
            "lat": 49.85025359647006,
            "lon": 18.127681629466704
        },
        "typ": "castMesta"
    },
    {
        "id": "554570",
        "nazev": "Martinov",
        "obec": "554821",
        "pos": {
            "lat": 49.856602791164484,
            "lon": 18.178091655464627
        },
        "typ": "castMesta"
    },
    {
        "id": "554588",
        "nazev": "Polanka nad Odrou",
        "obec": "554821",
        "pos": {
            "lat": 49.787666239100055,
            "lon": 18.156445003396502
        },
        "typ": "castMesta"
    },
    {
        "id": "554669",
        "nazev": "Hrabová",
        "obec": "554821",
        "pos": {
            "lat": 49.76947123578637,
            "lon": 18.28696829063645
        },
        "typ": "castMesta"
    },
    {
        "id": "554685",
        "nazev": "Svinov",
        "obec": "554821",
        "pos": {
            "lat": 49.81830919049573,
            "lon": 18.193580014550243
        },
        "typ": "castMesta"
    },
    {
        "id": "554715",
        "nazev": "Třebovice",
        "obec": "554821",
        "pos": {
            "lat": 49.83315560628514,
            "lon": 18.192461885473914
        },
        "typ": "castMesta"
    },
    {
        "id": "554723",
        "nazev": "Plesná",
        "obec": "554821",
        "pos": {
            "lat": 49.85822178913155,
            "lon": 18.15178329753852
        },
        "typ": "castMesta"
    },
    {
        "id": "554731",
        "nazev": "Plzeň 5-Křimice",
        "obec": "554791",
        "pos": {
            "lat": 49.75772808684959,
            "lon": 13.306391476116277
        },
        "typ": "castMesta"
    },
    {
        "id": "554758",
        "nazev": "Plzeň 6-Litice",
        "obec": "554791",
        "pos": {
            "lat": 49.69684789130777,
            "lon": 13.352985602550339
        },
        "typ": "castMesta"
    },
    {
        "id": "554774",
        "nazev": "Plzeň 8-Černice",
        "obec": "554791",
        "pos": {
            "lat": 49.69132825501822,
            "lon": 13.425355048745525
        },
        "typ": "castMesta"
    },
    {
        "id": "555096",
        "nazev": "Pardubice IV",
        "obec": "555134",
        "pos": {
            "lat": 50.02480315165309,
            "lon": 15.791603031626662
        },
        "typ": "castMesta"
    },
    {
        "id": "555100",
        "nazev": "Pardubice VI",
        "obec": "555134",
        "pos": {
            "lat": 50.02503298314776,
            "lon": 15.69056486911941
        },
        "typ": "castMesta"
    },
    {
        "id": "555118",
        "nazev": "Pardubice VII",
        "obec": "555134",
        "pos": {
            "lat": 50.06110918225914,
            "lon": 15.737352790451988
        },
        "typ": "castMesta"
    },
    {
        "id": "555126",
        "nazev": "Pardubice II",
        "obec": "555134",
        "pos": {
            "lat": 50.050026964585165,
            "lon": 15.762360415504023
        },
        "typ": "castMesta"
    },
    {
        "id": "555321",
        "nazev": "Opava (nečleněná část města)",
        "obec": "505927",
        "pos": {
            "lat": 49.944195225934706,
            "lon": 17.909471135270373
        },
        "typ": "castMesta"
    },
    {
        "id": "555339",
        "nazev": "Malé Hoštice",
        "obec": "505927",
        "pos": {
            "lat": 49.942122494498285,
            "lon": 17.943545748300096
        },
        "typ": "castMesta"
    },
    {
        "id": "555371",
        "nazev": "Suché Lazce",
        "obec": "505927",
        "pos": {
            "lat": 49.89849979645518,
            "lon": 17.982925579682394
        },
        "typ": "castMesta"
    },
    {
        "id": "500178",
        "nazev": "Praha 6",
        "obec": "554782",
        "pos": {
            "lat": 50.10451517263104,
            "lon": 14.37681827476441
        },
        "typ": "castMesta"
    },
    {
        "id": "500216",
        "nazev": "Praha 9",
        "obec": "554782",
        "pos": {
            "lat": 50.10993909832567,
            "lon": 14.499841135297535
        },
        "typ": "castMesta"
    },
    {
        "id": "555436",
        "nazev": "Milostovice",
        "obec": "505927",
        "pos": {
            "lat": 49.95059743423275,
            "lon": 17.832068495083952
        },
        "typ": "castMesta"
    },
    {
        "id": "556891",
        "nazev": "Liberec-Vratislavice nad Nisou",
        "obec": "563889",
        "pos": {
            "lat": 50.74423584609551,
            "lon": 15.089646500060441
        },
        "typ": "castMesta"
    },
    {
        "id": "556904",
        "nazev": "Liberec (nečleněné město)",
        "obec": "563889",
        "pos": {
            "lat": 50.769997305420375,
            "lon": 15.0584491010593
        },
        "typ": "castMesta"
    },
    {
        "id": "557064",
        "nazev": "Pardubice III",
        "obec": "555134",
        "pos": {
            "lat": 50.04335283324213,
            "lon": 15.804569584297601
        },
        "typ": "castMesta"
    },
    {
        "id": "557072",
        "nazev": "Pardubice V",
        "obec": "555134",
        "pos": {
            "lat": 50.02404519523668,
            "lon": 15.759169012760832
        },
        "typ": "castMesta"
    },
    {
        "id": "557978",
        "nazev": "Plzeň 10-Lhota",
        "obec": "554791",
        "pos": {
            "lat": 49.69331256217669,
            "lon": 13.314439786206108
        },
        "typ": "castMesta"
    },
    {
        "id": "567892",
        "nazev": "Ústí nad Labem-město",
        "obec": "554804",
        "pos": {
            "lat": 50.666495477893186,
            "lon": 13.989636897983871
        },
        "typ": "castMesta"
    },
    {
        "id": "574716",
        "nazev": "Pardubice I",
        "obec": "555134",
        "pos": {
            "lat": 50.034706640891194,
            "lon": 15.773314548978039
        },
        "typ": "castMesta"
    },
    {
        "id": "500097",
        "nazev": "Praha 3",
        "obec": "554782",
        "pos": {
            "lat": 50.08883313652503,
            "lon": 14.46623704291817
        },
        "typ": "castMesta"
    },
    {
        "id": "539635",
        "nazev": "Praha-Řeporyje",
        "obec": "554782",
        "pos": {
            "lat": 50.031805515598364,
            "lon": 14.303937468988382
        },
        "typ": "castMesta"
    },
    {
        "id": "539791",
        "nazev": "Praha-Újezd",
        "obec": "554782",
        "pos": {
            "lat": 50.014125801434744,
            "lon": 14.54549049022066
        },
        "typ": "castMesta"
    },
    {
        "id": "547051",
        "nazev": "Praha-Libuš",
        "obec": "554782",
        "pos": {
            "lat": 50.00404537444282,
            "lon": 14.457356885652299
        },
        "typ": "castMesta"
    },
    {
        "id": "547271",
        "nazev": "Praha-Suchdol",
        "obec": "554782",
        "pos": {
            "lat": 50.13508223039098,
            "lon": 14.372549342645929
        },
        "typ": "castMesta"
    },
    {
        "id": "547298",
        "nazev": "Praha-Ďáblice",
        "obec": "554782",
        "pos": {
            "lat": 50.145610804474096,
            "lon": 14.482376689495903
        },
        "typ": "castMesta"
    },
    {
        "id": "500224",
        "nazev": "Praha 10",
        "obec": "554782",
        "pos": {
            "lat": 50.07167202363779,
            "lon": 14.498089781139308
        },
        "typ": "castMesta"
    },
    {
        "id": "539724",
        "nazev": "Praha-Šeberov",
        "obec": "554782",
        "pos": {
            "lat": 50.01287498928879,
            "lon": 14.51055029805952
        },
        "typ": "castMesta"
    },
    {
        "id": "554235",
        "nazev": "Stará Bělá",
        "obec": "554821",
        "pos": {
            "lat": 49.76813081376498,
            "lon": 18.228894037512887
        },
        "typ": "castMesta"
    },
    {
        "id": "538302",
        "nazev": "Praha-Klánovice",
        "obec": "554782",
        "pos": {
            "lat": 50.09477069360726,
            "lon": 14.669488332547417
        },
        "typ": "castMesta"
    },
    {
        "id": "539694",
        "nazev": "Praha 13",
        "obec": "554782",
        "pos": {
            "lat": 50.04923567714947,
            "lon": 14.316790273477675
        },
        "typ": "castMesta"
    },
    {
        "id": "547301",
        "nazev": "Praha-Dolní Chabry",
        "obec": "554782",
        "pos": {
            "lat": 50.14931872225064,
            "lon": 14.44204228909628
        },
        "typ": "castMesta"
    },
    {
        "id": "551112",
        "nazev": "Brno-Nový Lískovec",
        "obec": "582786",
        "pos": {
            "lat": 49.183656471493684,
            "lon": 16.557856432144302
        },
        "typ": "castMesta"
    },
    {
        "id": "547395",
        "nazev": "Praha-Petrovice",
        "obec": "554782",
        "pos": {
            "lat": 50.03696073731993,
            "lon": 14.557577298695836
        },
        "typ": "castMesta"
    },
    {
        "id": "551082",
        "nazev": "Brno-Bohunice",
        "obec": "582786",
        "pos": {
            "lat": 49.17629025380785,
            "lon": 16.575411724356634
        },
        "typ": "castMesta"
    },
    {
        "id": "551309",
        "nazev": "Brno-Tuřany",
        "obec": "582786",
        "pos": {
            "lat": 49.14724182609259,
            "lon": 16.662997502773568
        },
        "typ": "castMesta"
    },
    {
        "id": "555355",
        "nazev": "Komárov",
        "obec": "505927",
        "pos": {
            "lat": 49.914262796545,
            "lon": 17.968769322053678
        },
        "typ": "castMesta"
    },
    {
        "id": "555401",
        "nazev": "Podvihov",
        "obec": "505927",
        "pos": {
            "lat": 49.87568865652315,
            "lon": 17.975395164455627
        },
        "typ": "castMesta"
    },
    {
        "id": "555410",
        "nazev": "Zlatníky",
        "obec": "505927",
        "pos": {
            "lat": 49.94232645458888,
            "lon": 17.82960725758278
        },
        "typ": "castMesta"
    },
    {
        "id": "502081",
        "nazev": "Ústí nad Labem-Neštěmice",
        "obec": "554804",
        "pos": {
            "lat": 50.671249976845054,
            "lon": 14.071970258239341
        },
        "typ": "castMesta"
    },
    {
        "id": "502316",
        "nazev": "Ústí nad Labem-Střekov",
        "obec": "554804",
        "pos": {
            "lat": 50.65109490125241,
            "lon": 14.054524154268238
        },
        "typ": "castMesta"
    },
    {
        "id": "538078",
        "nazev": "Praha-Benice",
        "obec": "554782",
        "pos": {
            "lat": 50.012960169612285,
            "lon": 14.604874123321736
        },
        "typ": "castMesta"
    },
    {
        "id": "547417",
        "nazev": "Praha 18",
        "obec": "554782",
        "pos": {
            "lat": 50.13759700913174,
            "lon": 14.515143530376879
        },
        "typ": "castMesta"
    },
    {
        "id": "538361",
        "nazev": "Praha-Kolovraty",
        "obec": "554782",
        "pos": {
            "lat": 50.01209098985957,
            "lon": 14.62617506820725
        },
        "typ": "castMesta"
    },
    {
        "id": "547034",
        "nazev": "Praha 11",
        "obec": "554782",
        "pos": {
            "lat": 50.035146833994425,
            "lon": 14.505833967242355
        },
        "typ": "castMesta"
    },
    {
        "id": "538124",
        "nazev": "Praha-Březiněves",
        "obec": "554782",
        "pos": {
            "lat": 50.164805097741464,
            "lon": 14.483940562593581
        },
        "typ": "castMesta"
    },
    {
        "id": "538400",
        "nazev": "Praha-Křeslice",
        "obec": "554782",
        "pos": {
            "lat": 50.02294726675414,
            "lon": 14.563346875621763
        },
        "typ": "castMesta"
    },
    {
        "id": "538531",
        "nazev": "Praha-Nedvězí",
        "obec": "554782",
        "pos": {
            "lat": 50.017935056745664,
            "lon": 14.651704714448485
        },
        "typ": "castMesta"
    },
    {
        "id": "539465",
        "nazev": "Praha-Lochkov",
        "obec": "554782",
        "pos": {
            "lat": 50.002601514261215,
            "lon": 14.353608263484569
        },
        "typ": "castMesta"
    },
    {
        "id": "545911",
        "nazev": "Moravská Ostrava a Přívoz",
        "obec": "554821",
        "pos": {
            "lat": 49.844133240519206,
            "lon": 18.26301582734528
        },
        "typ": "castMesta"
    },
    {
        "id": "545970",
        "nazev": "Plzeň 1",
        "obec": "554791",
        "pos": {
            "lat": 49.768727145385505,
            "lon": 13.367128240468913
        },
        "typ": "castMesta"
    },
    {
        "id": "545988",
        "nazev": "Plzeň 2-Slovany",
        "obec": "554791",
        "pos": {
            "lat": 49.72410399344333,
            "lon": 13.41933011241924
        },
        "typ": "castMesta"
    },
    {
        "id": "546003",
        "nazev": "Plzeň 3",
        "obec": "554791",
        "pos": {
            "lat": 49.73019270824298,
            "lon": 13.341391321810477
        },
        "typ": "castMesta"
    },
    {
        "id": "546046",
        "nazev": "Slezská Ostrava",
        "obec": "554821",
        "pos": {
            "lat": 49.84478451090247,
            "lon": 18.294658425651704
        },
        "typ": "castMesta"
    },
    {
        "id": "546135",
        "nazev": "Ostrava-Jih",
        "obec": "554821",
        "pos": {
            "lat": 49.796970015685865,
            "lon": 18.234315304348243
        },
        "typ": "castMesta"
    },
    {
        "id": "546208",
        "nazev": "Plzeň 4",
        "obec": "554791",
        "pos": {
            "lat": 49.75623146329541,
            "lon": 13.42045399882212
        },
        "typ": "castMesta"
    },
    {
        "id": "546224",
        "nazev": "Poruba",
        "obec": "554821",
        "pos": {
            "lat": 49.84622459492695,
            "lon": 18.160684789595663
        },
        "typ": "castMesta"
    },
    {
        "id": "547158",
        "nazev": "Praha-Nebušice",
        "obec": "554782",
        "pos": {
            "lat": 50.11137801717663,
            "lon": 14.331586849099736
        },
        "typ": "castMesta"
    },
    {
        "id": "547328",
        "nazev": "Praha-Troja",
        "obec": "554782",
        "pos": {
            "lat": 50.12018001319362,
            "lon": 14.41015385344939
        },
        "typ": "castMesta"
    },
    {
        "id": "550973",
        "nazev": "Brno-střed",
        "obec": "582786",
        "pos": {
            "lat": 49.19518995689596,
            "lon": 16.599688580133698
        },
        "typ": "castMesta"
    },
    {
        "id": "550990",
        "nazev": "Brno-Žabovřesky",
        "obec": "582786",
        "pos": {
            "lat": 49.21327037902731,
            "lon": 16.57140731831131
        },
        "typ": "castMesta"
    },
    {
        "id": "551031",
        "nazev": "Brno-sever",
        "obec": "582786",
        "pos": {
            "lat": 49.211779924224324,
            "lon": 16.621636883303132
        },
        "typ": "castMesta"
    },
    {
        "id": "551058",
        "nazev": "Brno-Židenice",
        "obec": "582786",
        "pos": {
            "lat": 49.19630228179591,
            "lon": 16.647520115481633
        },
        "typ": "castMesta"
    },
    {
        "id": "500186",
        "nazev": "Praha 7",
        "obec": "554782",
        "pos": {
            "lat": 50.1006410337651,
            "lon": 14.435503501677665
        },
        "typ": "castMesta"
    },
    {
        "id": "547379",
        "nazev": "Praha-Dolní Měcholupy",
        "obec": "554782",
        "pos": {
            "lat": 50.05882730932494,
            "lon": 14.558603956149174
        },
        "typ": "castMesta"
    },
    {
        "id": "547409",
        "nazev": "Praha-Štěrboholy",
        "obec": "554782",
        "pos": {
            "lat": 50.07194950254342,
            "lon": 14.55301673783299
        },
        "typ": "castMesta"
    },
    {
        "id": "555461",
        "nazev": "Vlaštovičky",
        "obec": "505927",
        "pos": {
            "lat": 49.969832093111826,
            "lon": 17.821406813072233
        },
        "typ": "castMesta"
    },
    {
        "id": "556700",
        "nazev": "Vávrovice",
        "obec": "505927",
        "pos": {
            "lat": 49.96866071502913,
            "lon": 17.85978882411459
        },
        "typ": "castMesta"
    },
    {
        "id": "547115",
        "nazev": "Praha-Velká Chuchle",
        "obec": "554782",
        "pos": {
            "lat": 50.00833728450255,
            "lon": 14.376465781678462
        },
        "typ": "castMesta"
    },
    {
        "id": "501298",
        "nazev": "Ústí nad Labem-Severní Terasa",
        "obec": "554804",
        "pos": {
            "lat": 50.68054270307398,
            "lon": 14.030092607426392
        },
        "typ": "castMesta"
    },
    {
        "id": "538175",
        "nazev": "Praha-Dolní Počernice",
        "obec": "554782",
        "pos": {
            "lat": 50.08570757468511,
            "lon": 14.57549617759487
        },
        "typ": "castMesta"
    },
    {
        "id": "539864",
        "nazev": "Praha-Zbraslav",
        "obec": "554782",
        "pos": {
            "lat": 49.97410350809649,
            "lon": 14.379963784507396
        },
        "typ": "castMesta"
    },
    {
        "id": "539678",
        "nazev": "Praha-Slivenec",
        "obec": "554782",
        "pos": {
            "lat": 50.02026356573797,
            "lon": 14.358263696894415
        },
        "typ": "castMesta"
    },
    {
        "id": "539007",
        "nazev": "Praha-Vinoř",
        "obec": "554782",
        "pos": {
            "lat": 50.14550146639129,
            "lon": 14.574143923658227
        },
        "typ": "castMesta"
    },
    {
        "id": "538388",
        "nazev": "Praha-Královice",
        "obec": "554782",
        "pos": {
            "lat": 50.0383618162413,
            "lon": 14.636170767827865
        },
        "typ": "castMesta"
    },
    {
        "id": "547042",
        "nazev": "Praha-Kunratice",
        "obec": "554782",
        "pos": {
            "lat": 50.01590829114221,
            "lon": 14.48314993193487
        },
        "typ": "castMesta"
    },
    {
        "id": "547387",
        "nazev": "Praha 15",
        "obec": "554782",
        "pos": {
            "lat": 50.04420929032845,
            "lon": 14.55745824494675
        },
        "typ": "castMesta"
    },
    {
        "id": "554766",
        "nazev": "Plzeň 7-Radčice",
        "obec": "554791",
        "pos": {
            "lat": 49.765605180642915,
            "lon": 13.325678967310033
        },
        "typ": "castMesta"
    },
    {
        "id": "559199",
        "nazev": "Plzeň 9-Malesice",
        "obec": "554791",
        "pos": {
            "lat": 49.77063942314522,
            "lon": 13.298260655975945
        },
        "typ": "castMesta"
    },
    {
        "id": "500119",
        "nazev": "Praha 4",
        "obec": "554782",
        "pos": {
            "lat": 50.060591395552734,
            "lon": 14.434183924358178
        },
        "typ": "castMesta"
    },
    {
        "id": "547344",
        "nazev": "Praha 19",
        "obec": "554782",
        "pos": {
            "lat": 50.1317189561328,
            "lon": 14.551680740154797
        },
        "typ": "castMesta"
    },
    {
        "id": "500143",
        "nazev": "Praha 5",
        "obec": "554782",
        "pos": {
            "lat": 50.059474779252604,
            "lon": 14.37320882043332
        },
        "typ": "castMesta"
    },
    {
        "id": "551066",
        "nazev": "Brno-Černovice",
        "obec": "582786",
        "pos": {
            "lat": 49.18231070011436,
            "lon": 16.63650217658561
        },
        "typ": "castMesta"
    },
    {
        "id": "551074",
        "nazev": "Brno-jih",
        "obec": "582786",
        "pos": {
            "lat": 49.177953316390806,
            "lon": 16.62008606787726
        },
        "typ": "castMesta"
    },
    {
        "id": "551091",
        "nazev": "Brno-Starý Lískovec",
        "obec": "582786",
        "pos": {
            "lat": 49.16336124517946,
            "lon": 16.561051845775033
        },
        "typ": "castMesta"
    },
    {
        "id": "551147",
        "nazev": "Brno-Kohoutovice",
        "obec": "582786",
        "pos": {
            "lat": 49.196892572403655,
            "lon": 16.540124935789194
        },
        "typ": "castMesta"
    },
    {
        "id": "551171",
        "nazev": "Brno-Jundrov",
        "obec": "582786",
        "pos": {
            "lat": 49.207745225859696,
            "lon": 16.544969935068412
        },
        "typ": "castMesta"
    },
    {
        "id": "551198",
        "nazev": "Brno-Bystrc",
        "obec": "582786",
        "pos": {
            "lat": 49.2363670756333,
            "lon": 16.476798740485158
        },
        "typ": "castMesta"
    },
    {
        "id": "551210",
        "nazev": "Brno-Kníničky",
        "obec": "582786",
        "pos": {
            "lat": 49.2685090869951,
            "lon": 16.469254908981686
        },
        "typ": "castMesta"
    },
    {
        "id": "551228",
        "nazev": "Brno-Komín",
        "obec": "582786",
        "pos": {
            "lat": 49.22860240433988,
            "lon": 16.545408546377974
        },
        "typ": "castMesta"
    },
    {
        "id": "551236",
        "nazev": "Brno-Medlánky",
        "obec": "582786",
        "pos": {
            "lat": 49.23928577392057,
            "lon": 16.566967862569236
        },
        "typ": "castMesta"
    },
    {
        "id": "551252",
        "nazev": "Brno-Maloměřice a Obřany",
        "obec": "582786",
        "pos": {
            "lat": 49.228869064780056,
            "lon": 16.63960017451684
        },
        "typ": "castMesta"
    },
    {
        "id": "551279",
        "nazev": "Brno-Vinohrady",
        "obec": "582786",
        "pos": {
            "lat": 49.20267509536764,
            "lon": 16.654272284368197
        },
        "typ": "castMesta"
    },
    {
        "id": "551287",
        "nazev": "Brno-Líšeň",
        "obec": "582786",
        "pos": {
            "lat": 49.206462940332116,
            "lon": 16.697766031729188
        },
        "typ": "castMesta"
    },
    {
        "id": "551295",
        "nazev": "Brno-Slatina",
        "obec": "582786",
        "pos": {
            "lat": 49.17527729270344,
            "lon": 16.677490779964515
        },
        "typ": "castMesta"
    },
    {
        "id": "551325",
        "nazev": "Brno-Bosonohy",
        "obec": "582786",
        "pos": {
            "lat": 49.1755002391449,
            "lon": 16.52522134967277
        },
        "typ": "castMesta"
    },
    {
        "id": "551368",
        "nazev": "Brno-Žebětín",
        "obec": "582786",
        "pos": {
            "lat": 49.20424154295818,
            "lon": 16.499252122185798
        },
        "typ": "castMesta"
    },
    {
        "id": "551376",
        "nazev": "Brno-Ivanovice",
        "obec": "582786",
        "pos": {
            "lat": 49.26335589888042,
            "lon": 16.566716823158302
        },
        "typ": "castMesta"
    },
    {
        "id": "551406",
        "nazev": "Brno-Jehnice",
        "obec": "582786",
        "pos": {
            "lat": 49.27423828822111,
            "lon": 16.588137697134925
        },
        "typ": "castMesta"
    },
    {
        "id": "551431",
        "nazev": "Brno-Útěchov",
        "obec": "582786",
        "pos": {
            "lat": 49.28800598756678,
            "lon": 16.63484288668572
        },
        "typ": "castMesta"
    },
    {
        "id": "554219",
        "nazev": "Nová Bělá",
        "obec": "554821",
        "pos": {
            "lat": 49.75180835461835,
            "lon": 18.255995939704476
        },
        "typ": "castMesta"
    },
    {
        "id": "554227",
        "nazev": "Vítkovice",
        "obec": "554821",
        "pos": {
            "lat": 49.806399020438626,
            "lon": 18.263169554930126
        },
        "typ": "castMesta"
    },
    {
        "id": "538213",
        "nazev": "Praha 20",
        "obec": "554782",
        "pos": {
            "lat": 50.11511278667519,
            "lon": 14.621505408371924
        },
        "typ": "castMesta"
    },
    {
        "id": "539589",
        "nazev": "Praha-Přední Kopanina",
        "obec": "554782",
        "pos": {
            "lat": 50.11731108263252,
            "lon": 14.296423179184114
        },
        "typ": "castMesta"
    },
    {
        "id": "538353",
        "nazev": "Praha-Koloděje",
        "obec": "554782",
        "pos": {
            "lat": 50.06212979417796,
            "lon": 14.638244470177765
        },
        "typ": "castMesta"
    },
    {
        "id": "538060",
        "nazev": "Praha-Běchovice",
        "obec": "554782",
        "pos": {
            "lat": 50.081062448776734,
            "lon": 14.615953765395306
        },
        "typ": "castMesta"
    },
    {
        "id": "539449",
        "nazev": "Praha-Lipence",
        "obec": "554782",
        "pos": {
            "lat": 49.96023731350782,
            "lon": 14.350217253039698
        },
        "typ": "castMesta"
    },
    {
        "id": "500208",
        "nazev": "Praha 8",
        "obec": "554782",
        "pos": {
            "lat": 50.11151200694652,
            "lon": 14.467386753983165
        },
        "typ": "castMesta"
    },
    {
        "id": "538205",
        "nazev": "Praha-Dubeč",
        "obec": "554782",
        "pos": {
            "lat": 50.06160455548185,
            "lon": 14.590436035009528
        },
        "typ": "castMesta"
    },
    {
        "id": "538931",
        "nazev": "Praha 22",
        "obec": "554782",
        "pos": {
            "lat": 50.034392274921245,
            "lon": 14.590518050776092
        },
        "typ": "castMesta"
    },
    {
        "id": "551007",
        "nazev": "Brno-Královo Pole",
        "obec": "582786",
        "pos": {
            "lat": 49.226691677315316,
            "lon": 16.593460326723765
        },
        "typ": "castMesta"
    },
    {
        "id": "551244",
        "nazev": "Brno-Řečkovice a Mokrá Hora",
        "obec": "582786",
        "pos": {
            "lat": 49.2514603650475,
            "lon": 16.57930361548457
        },
        "typ": "castMesta"
    },
    {
        "id": "547140",
        "nazev": "Praha-Lysolaje",
        "obec": "554782",
        "pos": {
            "lat": 50.12401629325355,
            "lon": 14.370564709137783
        },
        "typ": "castMesta"
    },
    {
        "id": "539899",
        "nazev": "Praha-Zličín",
        "obec": "554782",
        "pos": {
            "lat": 50.06048613635077,
            "lon": 14.290388119923858
        },
        "typ": "castMesta"
    },
    {
        "id": "538736",
        "nazev": "Praha-Satalice",
        "obec": "554782",
        "pos": {
            "lat": 50.12527221386786,
            "lon": 14.57139053157988
        },
        "typ": "castMesta"
    },
    {
        "id": "538949",
        "nazev": "Praha 21",
        "obec": "554782",
        "pos": {
            "lat": 50.07575167933346,
            "lon": 14.659358932705933
        },
        "typ": "castMesta"
    },
    {
        "id": "539601",
        "nazev": "Praha 16",
        "obec": "554782",
        "pos": {
            "lat": 49.988323800818435,
            "lon": 14.366531208762863
        },
        "typ": "castObce"
    },
    {
        "id": "32263",
        "nazev": "Dobrš",
        "obec": "551023",
        "pos": {
            "lat": 49.1560555964601,
            "lon": 13.753819283732087
        },
        "typ": "castObce"
    },
    {
        "id": "32271",
        "nazev": "Drážov",
        "obec": "551023",
        "pos": {
            "lat": 49.167306884970365,
            "lon": 13.740603569680374
        },
        "typ": "castObce"
    },
    {
        "id": "32280",
        "nazev": "Kváskovice",
        "obec": "551023",
        "pos": {
            "lat": 49.17557329111948,
            "lon": 13.736506529439144
        },
        "typ": "castObce"
    },
    {
        "id": "92533",
        "nazev": "Kamenné",
        "obec": "563226",
        "pos": {
            "lat": 50.41376404875354,
            "lon": 13.118474803121032
        },
        "typ": "castObce"
    },
    {
        "id": "92541",
        "nazev": "Měděnec",
        "obec": "563226",
        "pos": {
            "lat": 50.42161358564191,
            "lon": 13.115425651559587
        },
        "typ": "castObce"
    },
    {
        "id": "92576",
        "nazev": "Medlešice",
        "obec": "571164",
        "pos": {
            "lat": 49.97949703711308,
            "lon": 15.771546191332321
        },
        "typ": "castObce"
    },
    {
        "id": "74314",
        "nazev": "Těšínov",
        "obec": "549771",
        "pos": {
            "lat": 49.192285259321196,
            "lon": 14.274587428996949
        },
        "typ": "castObce"
    },
    {
        "id": "74331",
        "nazev": "Krčmaň",
        "obec": "552437",
        "pos": {
            "lat": 49.52074476183863,
            "lon": 17.344145475326183
        },
        "typ": "castObce"
    },
    {
        "id": "74365",
        "nazev": "Krhanice",
        "obec": "529958",
        "pos": {
            "lat": 49.8560083379854,
            "lon": 14.557356971609153
        },
        "typ": "castObce"
    },
    {
        "id": "74381",
        "nazev": "Krhov",
        "obec": "581798",
        "pos": {
            "lat": 49.46025992935503,
            "lon": 16.583818133562236
        },
        "typ": "castObce"
    },
    {
        "id": "74390",
        "nazev": "Krhov",
        "obec": "590967",
        "pos": {
            "lat": 49.100336178586424,
            "lon": 16.01940964681689
        },
        "typ": "castObce"
    },
    {
        "id": "74403",
        "nazev": "Krhov",
        "obec": "592048",
        "pos": {
            "lat": 49.01961328803107,
            "lon": 17.832295872262446
        },
        "typ": "castObce"
    },
    {
        "id": "74471",
        "nazev": "Krchleby",
        "obec": "537390",
        "pos": {
            "lat": 50.239164229206274,
            "lon": 15.022705668303335
        },
        "typ": "castObce"
    },
    {
        "id": "74497",
        "nazev": "Krchleby",
        "obec": "569372",
        "pos": {
            "lat": 49.82071661273614,
            "lon": 16.833616744500464
        },
        "typ": "castObce"
    },
    {
        "id": "74527",
        "nazev": "Teletín",
        "obec": "529974",
        "pos": {
            "lat": 49.82719561333698,
            "lon": 14.46813968782884
        },
        "typ": "castObce"
    },
    {
        "id": "74811",
        "nazev": "Řehnice",
        "obec": "536172",
        "pos": {
            "lat": 50.39231243144981,
            "lon": 14.85386907093527
        },
        "typ": "castObce"
    },
    {
        "id": "74829",
        "nazev": "Krokočín",
        "obec": "590975",
        "pos": {
            "lat": 49.24408562473192,
            "lon": 16.23297540627579
        },
        "typ": "castObce"
    },
    {
        "id": "84476",
        "nazev": "Palič",
        "obec": "554626",
        "pos": {
            "lat": 50.0089110727779,
            "lon": 12.482244402521532
        },
        "typ": "castObce"
    },
    {
        "id": "84522",
        "nazev": "Liščí",
        "obec": "562661",
        "pos": {
            "lat": 51.03395721122781,
            "lon": 14.355073672899522
        },
        "typ": "castObce"
    },
    {
        "id": "84549",
        "nazev": "Libov",
        "obec": "568023",
        "pos": {
            "lat": 50.70596693153312,
            "lon": 14.07160885543523
        },
        "typ": "castObce"
    },
    {
        "id": "84557",
        "nazev": "Lipová",
        "obec": "568023",
        "pos": {
            "lat": 50.716048575899485,
            "lon": 14.088127434712854
        },
        "typ": "castObce"
    },
    {
        "id": "84565",
        "nazev": "Radešín",
        "obec": "568023",
        "pos": {
            "lat": 50.70242468354285,
            "lon": 14.068384962229896
        },
        "typ": "castObce"
    },
    {
        "id": "84573",
        "nazev": "Slavošov",
        "obec": "568155",
        "pos": {
            "lat": 50.71670446230018,
            "lon": 14.102954881560185
        },
        "typ": "castObce"
    },
    {
        "id": "84590",
        "nazev": "Hrochov",
        "obec": "589691",
        "pos": {
            "lat": 49.534029421624496,
            "lon": 16.868933547460262
        },
        "typ": "castObce"
    },
    {
        "id": "84611",
        "nazev": "Seč",
        "obec": "589691",
        "pos": {
            "lat": 49.52152389770188,
            "lon": 16.88219229467328
        },
        "typ": "castObce"
    },
    {
        "id": "84638",
        "nazev": "Lipová",
        "obec": "514772",
        "pos": {
            "lat": 49.4098280010208,
            "lon": 17.614060827101742
        },
        "typ": "castObce"
    },
    {
        "id": "84662",
        "nazev": "Lipová-lázně",
        "obec": "540030",
        "pos": {
            "lat": 50.22776956780882,
            "lon": 17.140445298018616
        },
        "typ": "castObce"
    },
    {
        "id": "84689",
        "nazev": "Lipovec",
        "obec": "547875",
        "pos": {
            "lat": 49.916335943273964,
            "lon": 15.544973838902672
        },
        "typ": "castObce"
    },
    {
        "id": "84701",
        "nazev": "Marianín",
        "obec": "581950",
        "pos": {
            "lat": 49.39034304090643,
            "lon": 16.836504416040068
        },
        "typ": "castObce"
    },
    {
        "id": "84719",
        "nazev": "Lipovka",
        "obec": "546151",
        "pos": {
            "lat": 49.28599690442454,
            "lon": 14.886248232422133
        },
        "typ": "castObce"
    },
    {
        "id": "84735",
        "nazev": "Litohrady",
        "obec": "576069",
        "pos": {
            "lat": 50.183901120462345,
            "lon": 16.24153247870153
        },
        "typ": "castObce"
    },
    {
        "id": "84743",
        "nazev": "Lokot",
        "obec": "576069",
        "pos": {
            "lat": 50.16331429434913,
            "lon": 16.239984564026557
        },
        "typ": "castObce"
    },
    {
        "id": "84816",
        "nazev": "Liptaň",
        "obec": "597571",
        "pos": {
            "lat": 50.22227083334204,
            "lon": 17.605415935918604
        },
        "typ": "castObce"
    },
    {
        "id": "84832",
        "nazev": "Lipůvka",
        "obec": "581968",
        "pos": {
            "lat": 49.34028153538182,
            "lon": 16.552899190271233
        },
        "typ": "castObce"
    },
    {
        "id": "100757",
        "nazev": "Pečetín",
        "obec": "555835",
        "pos": {
            "lat": 49.418668827355745,
            "lon": 13.404685084423889
        },
        "typ": "castObce"
    },
    {
        "id": "100765",
        "nazev": "Újezdec",
        "obec": "555835",
        "pos": {
            "lat": 49.428771657746715,
            "lon": 13.369935211396946
        },
        "typ": "castObce"
    },
    {
        "id": "100781",
        "nazev": "Myšenec",
        "obec": "549771",
        "pos": {
            "lat": 49.22321321715893,
            "lon": 14.20899870549053
        },
        "typ": "castObce"
    },
    {
        "id": "100838",
        "nazev": "Kožlí",
        "obec": "551473",
        "pos": {
            "lat": 49.45735763808979,
            "lon": 13.97931626692374
        },
        "typ": "castObce"
    },
    {
        "id": "100846",
        "nazev": "Laciná",
        "obec": "551473",
        "pos": {
            "lat": 49.44050047455028,
            "lon": 13.960544398236886
        },
        "typ": "castObce"
    },
    {
        "id": "100871",
        "nazev": "Střížovice",
        "obec": "551473",
        "pos": {
            "lat": 49.45348567446494,
            "lon": 13.942099266725068
        },
        "typ": "castObce"
    },
    {
        "id": "100901",
        "nazev": "Výšice",
        "obec": "551473",
        "pos": {
            "lat": 49.45431162057866,
            "lon": 13.996959347066527
        },
        "typ": "castObce"
    },
    {
        "id": "100935",
        "nazev": "Mýto",
        "obec": "560014",
        "pos": {
            "lat": 49.78904482789884,
            "lon": 13.734613368360392
        },
        "typ": "castObce"
    },
    {
        "id": "100986",
        "nazev": "Nabočany",
        "obec": "571890",
        "pos": {
            "lat": 49.94377073377284,
            "lon": 15.886871123404477
        },
        "typ": "castObce"
    },
    {
        "id": "101001",
        "nazev": "Olešná",
        "obec": "530212",
        "pos": {
            "lat": 49.605684030388865,
            "lon": 14.908338906826343
        },
        "typ": "castObce"
    },
    {
        "id": "101028",
        "nazev": "Načeratice",
        "obec": "593711",
        "pos": {
            "lat": 48.81886711225348,
            "lon": 16.112892357942435
        },
        "typ": "castObce"
    },
    {
        "id": "101036",
        "nazev": "Licomělice",
        "obec": "571903",
        "pos": {
            "lat": 49.93636176755039,
            "lon": 15.595656332948973
        },
        "typ": "castObce"
    },
    {
        "id": "101061",
        "nazev": "Chlístov",
        "obec": "549631",
        "pos": {
            "lat": 49.539041791713075,
            "lon": 14.484956325398077
        },
        "typ": "castObce"
    },
    {
        "id": "101087",
        "nazev": "Nadějkov",
        "obec": "549631",
        "pos": {
            "lat": 49.50271070776105,
            "lon": 14.479234123472141
        },
        "typ": "castObce"
    },
    {
        "id": "101109",
        "nazev": "Nadějov",
        "obec": "587575",
        "pos": {
            "lat": 49.42222980540418,
            "lon": 15.773058496374441
        },
        "typ": "castObce"
    },
    {
        "id": "103276",
        "nazev": "Nemyčeves",
        "obec": "573230",
        "pos": {
            "lat": 50.38443484606546,
            "lon": 15.370019393376715
        },
        "typ": "castObce"
    },
    {
        "id": "103306",
        "nazev": "Dědičky",
        "obec": "552747",
        "pos": {
            "lat": 49.51045341459097,
            "lon": 14.704414701987911
        },
        "typ": "castObce"
    },
    {
        "id": "103314",
        "nazev": "Nemyšl",
        "obec": "552747",
        "pos": {
            "lat": 49.513689139049795,
            "lon": 14.69240822517937
        },
        "typ": "castObce"
    },
    {
        "id": "103331",
        "nazev": "Úraz",
        "obec": "552747",
        "pos": {
            "lat": 49.51439806117832,
            "lon": 14.705541079068185
        },
        "typ": "castObce"
    },
    {
        "id": "103373",
        "nazev": "Nepasice",
        "obec": "571041",
        "pos": {
            "lat": 50.20834117027906,
            "lon": 15.955649503161368
        },
        "typ": "castObce"
    },
    {
        "id": "103390",
        "nazev": "Nepolisy",
        "obec": "570478",
        "pos": {
            "lat": 50.19220621420345,
            "lon": 15.463346284533603
        },
        "typ": "castObce"
    },
    {
        "id": "103411",
        "nazev": "Košice",
        "obec": "551465",
        "pos": {
            "lat": 49.89579547402957,
            "lon": 15.150839362098266
        },
        "typ": "castObce"
    },
    {
        "id": "103438",
        "nazev": "Nepoměřice",
        "obec": "534226",
        "pos": {
            "lat": 49.88076163854749,
            "lon": 15.148802786311997
        },
        "typ": "castObce"
    },
    {
        "id": "103462",
        "nazev": "Dvorec",
        "obec": "558109",
        "pos": {
            "lat": 49.49733407777464,
            "lon": 13.606816541281862
        },
        "typ": "castObce"
    },
    {
        "id": "103489",
        "nazev": "Dětaň",
        "obec": "566501",
        "pos": {
            "lat": 50.19478769141552,
            "lon": 13.308381557763589
        },
        "typ": "castObce"
    },
    {
        "id": "103497",
        "nazev": "Dvérce",
        "obec": "566501",
        "pos": {
            "lat": 50.20472967036742,
            "lon": 13.32639231685814
        },
        "typ": "castObce"
    },
    {
        "id": "103535",
        "nazev": "Horní Líšnice",
        "obec": "540129",
        "pos": {
            "lat": 49.637285951139766,
            "lon": 14.162715356942485
        },
        "typ": "castObce"
    },
    {
        "id": "103543",
        "nazev": "Nepřejov",
        "obec": "540129",
        "pos": {
            "lat": 49.641206118889954,
            "lon": 14.173986927364798
        },
        "typ": "castObce"
    },
    {
        "id": "103667",
        "nazev": "Lobkovice",
        "obec": "535087",
        "pos": {
            "lat": 50.25210587850898,
            "lon": 14.532842144367038
        },
        "typ": "castObce"
    },
    {
        "id": "103705",
        "nazev": "Horní Nerestce",
        "obec": "562157",
        "pos": {
            "lat": 49.49538917783766,
            "lon": 14.058619546189497
        },
        "typ": "castObce"
    },
    {
        "id": "103721",
        "nazev": "Neslovice",
        "obec": "583481",
        "pos": {
            "lat": 49.1422123028509,
            "lon": 16.387778371599044
        },
        "typ": "castObce"
    },
    {
        "id": "103748",
        "nazev": "Nesovice",
        "obec": "593419",
        "pos": {
            "lat": 49.15110582514356,
            "lon": 17.0809467937073
        },
        "typ": "castObce"
    },
    {
        "id": "103764",
        "nazev": "Městečko",
        "obec": "530263",
        "pos": {
            "lat": 49.85174994043269,
            "lon": 14.675338480524
        },
        "typ": "castObce"
    },
    {
        "id": "103781",
        "nazev": "Hradiště",
        "obec": "532932",
        "pos": {
            "lat": 49.68416757992276,
            "lon": 14.84870014212083
        },
        "typ": "castObce"
    },
    {
        "id": "103811",
        "nazev": "Polánka",
        "obec": "530883",
        "pos": {
            "lat": 49.69735595617797,
            "lon": 14.853277003793611
        },
        "typ": "castObce"
    },
    {
        "id": "103837",
        "nazev": "Nesvačilka",
        "obec": "583499",
        "pos": {
            "lat": 49.06402413009541,
            "lon": 16.75399898093364
        },
        "typ": "castObce"
    },
    {
        "id": "182044",
        "nazev": "Hrnčíře",
        "obec": "553280",
        "pos": {
            "lat": 49.582647633800626,
            "lon": 14.857130417631105
        },
        "typ": "castObce"
    },
    {
        "id": "182052",
        "nazev": "Vilice",
        "obec": "553280",
        "pos": {
            "lat": 49.56447025958401,
            "lon": 14.864310623958156
        },
        "typ": "castObce"
    },
    {
        "id": "182079",
        "nazev": "Vílov",
        "obec": "553531",
        "pos": {
            "lat": 49.39707203058884,
            "lon": 13.147638824852192
        },
        "typ": "castObce"
    },
    {
        "id": "182141",
        "nazev": "Výškovice",
        "obec": "550647",
        "pos": {
            "lat": 49.087109331161386,
            "lon": 13.780960358368642
        },
        "typ": "castObce"
    },
    {
        "id": "182184",
        "nazev": "Vinary",
        "obec": "571083",
        "pos": {
            "lat": 50.28950846249087,
            "lon": 15.428856555503353
        },
        "typ": "castObce"
    },
    {
        "id": "182192",
        "nazev": "Vinary",
        "obec": "572489",
        "pos": {
            "lat": 49.95910797729923,
            "lon": 16.06027662949544
        },
        "typ": "castObce"
    },
    {
        "id": "182214",
        "nazev": "Vinice",
        "obec": "534544",
        "pos": {
            "lat": 49.919850553400266,
            "lon": 15.490795875885567
        },
        "typ": "castObce"
    },
    {
        "id": "182222",
        "nazev": "Blov",
        "obec": "563439",
        "pos": {
            "lat": 50.32551768347515,
            "lon": 13.295685048050393
        },
        "typ": "castObce"
    },
    {
        "id": "182290",
        "nazev": "Vinařice",
        "obec": "565628",
        "pos": {
            "lat": 50.37380977615415,
            "lon": 14.95227512425516
        },
        "typ": "castObce"
    },
    {
        "id": "52434",
        "nazev": "Chomutičky",
        "obec": "572969",
        "pos": {
            "lat": 50.361838322624266,
            "lon": 15.48666791327555
        },
        "typ": "castObce"
    },
    {
        "id": "52442",
        "nazev": "Obora",
        "obec": "572969",
        "pos": {
            "lat": 50.359425082726396,
            "lon": 15.507224121015566
        },
        "typ": "castObce"
    },
    {
        "id": "52698",
        "nazev": "Chomýž",
        "obec": "588504",
        "pos": {
            "lat": 49.36237337100987,
            "lon": 17.64540438260292
        },
        "typ": "castObce"
    },
    {
        "id": "52701",
        "nazev": "Choratice",
        "obec": "532606",
        "pos": {
            "lat": 49.83932721218774,
            "lon": 14.874685226808737
        },
        "typ": "castObce"
    },
    {
        "id": "52728",
        "nazev": "Chornice",
        "obec": "578096",
        "pos": {
            "lat": 49.667379565543925,
            "lon": 16.742625860080768
        },
        "typ": "castObce"
    },
    {
        "id": "52736",
        "nazev": "Choroušky",
        "obec": "534838",
        "pos": {
            "lat": 50.39891964311284,
            "lon": 14.664884384455995
        },
        "typ": "castObce"
    },
    {
        "id": "52744",
        "nazev": "Chorušice",
        "obec": "534838",
        "pos": {
            "lat": 50.39058004883922,
            "lon": 14.670765069018145
        },
        "typ": "castObce"
    },
    {
        "id": "52752",
        "nazev": "Velký Újezd",
        "obec": "534838",
        "pos": {
            "lat": 50.4099863464302,
            "lon": 14.63090332079502
        },
        "typ": "castObce"
    },
    {
        "id": "52761",
        "nazev": "Zahájí",
        "obec": "534838",
        "pos": {
            "lat": 50.374492444899246,
            "lon": 14.666694318125733
        },
        "typ": "castObce"
    },
    {
        "id": "52779",
        "nazev": "Choryně",
        "obec": "542831",
        "pos": {
            "lat": 49.495747250607906,
            "lon": 17.898612657659424
        },
        "typ": "castObce"
    },
    {
        "id": "52795",
        "nazev": "Choťánky",
        "obec": "537217",
        "pos": {
            "lat": 50.13816215858707,
            "lon": 15.162434419167587
        },
        "typ": "castObce"
    },
    {
        "id": "52825",
        "nazev": "Mašovice",
        "obec": "552241",
        "pos": {
            "lat": 49.44532971274268,
            "lon": 14.813559999008628
        },
        "typ": "castObce"
    },
    {
        "id": "52876",
        "nazev": "Bílek",
        "obec": "568759",
        "pos": {
            "lat": 49.70330939856771,
            "lon": 15.729598405940605
        },
        "typ": "castObce"
    },
    {
        "id": "52957",
        "nazev": "Chotěbuz",
        "obec": "555291",
        "pos": {
            "lat": 49.768493227196984,
            "lon": 18.56912250870891
        },
        "typ": "castObce"
    },
    {
        "id": "52981",
        "nazev": "Choteč",
        "obec": "539287",
        "pos": {
            "lat": 49.98655304153938,
            "lon": 14.282914637045796
        },
        "typ": "castObce"
    },
    {
        "id": "153869",
        "nazev": "Nová Roveň",
        "obec": "578380",
        "pos": {
            "lat": 49.697471224657185,
            "lon": 16.79774594779079
        },
        "typ": "castObce"
    },
    {
        "id": "70611",
        "nazev": "Doubrava",
        "obec": "529630",
        "pos": {
            "lat": 50.16817655441207,
            "lon": 14.964939458001053
        },
        "typ": "castObce"
    },
    {
        "id": "70637",
        "nazev": "Lány",
        "obec": "537331",
        "pos": {
            "lat": 50.19571678349579,
            "lon": 14.956104228230776
        },
        "typ": "castObce"
    },
    {
        "id": "70645",
        "nazev": "Rozkoš",
        "obec": "537331",
        "pos": {
            "lat": 50.1885400589568,
            "lon": 14.93159007669716
        },
        "typ": "castObce"
    },
    {
        "id": "70688",
        "nazev": "Kostrčany",
        "obec": "555690",
        "pos": {
            "lat": 50.15083973389489,
            "lon": 13.262267234397369
        },
        "typ": "castObce"
    },
    {
        "id": "70700",
        "nazev": "Košařiska",
        "obec": "507458",
        "pos": {
            "lat": 49.590085988885505,
            "lon": 18.694643462958844
        },
        "typ": "castObce"
    },
    {
        "id": "70726",
        "nazev": "Košatka",
        "obec": "598739",
        "pos": {
            "lat": 49.73239848264619,
            "lon": 18.15924615490449
        },
        "typ": "castObce"
    },
    {
        "id": "70777",
        "nazev": "Nová Ves",
        "obec": "548171",
        "pos": {
            "lat": 49.55433220716226,
            "lon": 15.089149184278762
        },
        "typ": "castObce"
    },
    {
        "id": "70793",
        "nazev": "Borek",
        "obec": "552585",
        "pos": {
            "lat": 49.346042579209744,
            "lon": 14.759940330509819
        },
        "typ": "castObce"
    },
    {
        "id": "70807",
        "nazev": "Doubí",
        "obec": "552585",
        "pos": {
            "lat": 49.32208399740816,
            "lon": 14.730856138741018
        },
        "typ": "castObce"
    },
    {
        "id": "70815",
        "nazev": "Košice",
        "obec": "552585",
        "pos": {
            "lat": 49.32532497022575,
            "lon": 14.751401584422773
        },
        "typ": "castObce"
    },
    {
        "id": "70831",
        "nazev": "Košík",
        "obec": "537349",
        "pos": {
            "lat": 50.318251817091415,
            "lon": 15.134049828669776
        },
        "typ": "castObce"
    },
    {
        "id": "70858",
        "nazev": "Seletice",
        "obec": "534757",
        "pos": {
            "lat": 50.32034116113779,
            "lon": 15.096994398859787
        },
        "typ": "castObce"
    },
    {
        "id": "70874",
        "nazev": "Tuchom",
        "obec": "537349",
        "pos": {
            "lat": 50.325503292154984,
            "lon": 15.141364584430082
        },
        "typ": "castObce"
    },
    {
        "id": "70882",
        "nazev": "Košíky",
        "obec": "592307",
        "pos": {
            "lat": 49.15758136962727,
            "lon": 17.416188291458138
        },
        "typ": "castObce"
    },
    {
        "id": "70955",
        "nazev": "Valdice",
        "obec": "577235",
        "pos": {
            "lat": 50.58486882581929,
            "lon": 15.412632071079836
        },
        "typ": "castObce"
    },
    {
        "id": "70971",
        "nazev": "Střelná",
        "obec": "567621",
        "pos": {
            "lat": 50.66624621424009,
            "lon": 13.748774245777382
        },
        "typ": "castObce"
    },
    {
        "id": "70998",
        "nazev": "Vojnice",
        "obec": "566284",
        "pos": {
            "lat": 50.422370476060784,
            "lon": 13.942452034300056
        },
        "typ": "castObce"
    },
    {
        "id": "71021",
        "nazev": "Koštov",
        "obec": "553697",
        "pos": {
            "lat": 50.63176640669687,
            "lon": 13.992924137889817
        },
        "typ": "castObce"
    },
    {
        "id": "71048",
        "nazev": "Kotenčice",
        "obec": "513555",
        "pos": {
            "lat": 49.73629097803575,
            "lon": 14.093810491046856
        },
        "typ": "castObce"
    },
    {
        "id": "71072",
        "nazev": "Kotopeky",
        "obec": "534072",
        "pos": {
            "lat": 49.856732510831435,
            "lon": 13.92515595622396
        },
        "typ": "castObce"
    },
    {
        "id": "71102",
        "nazev": "Nový",
        "obec": "540633",
        "pos": {
            "lat": 49.680606561763085,
            "lon": 13.152168830314379
        },
        "typ": "castObce"
    },
    {
        "id": "71111",
        "nazev": "Záluží",
        "obec": "540633",
        "pos": {
            "lat": 49.67684276625201,
            "lon": 13.142158990397341
        },
        "typ": "castObce"
    },
    {
        "id": "71161",
        "nazev": "Hluky",
        "obec": "576395",
        "pos": {
            "lat": 50.297349706560595,
            "lon": 16.285472971242637
        },
        "typ": "castObce"
    },
    {
        "id": "71196",
        "nazev": "Šediviny",
        "obec": "576395",
        "pos": {
            "lat": 50.30672112899292,
            "lon": 16.307488074068782
        },
        "typ": "castObce"
    },
    {
        "id": "71242",
        "nazev": "Nový Dvůr",
        "obec": "553824",
        "pos": {
            "lat": 49.41463806946914,
            "lon": 13.004783748757367
        },
        "typ": "castObce"
    },
    {
        "id": "71269",
        "nazev": "Kouty",
        "obec": "534943",
        "pos": {
            "lat": 50.19311745893206,
            "lon": 15.148748830989136
        },
        "typ": "castObce"
    },
    {
        "id": "71307",
        "nazev": "Osíčany",
        "obec": "589641",
        "pos": {
            "lat": 49.277598636186816,
            "lon": 17.174352324937015
        },
        "typ": "castObce"
    },
    {
        "id": "71323",
        "nazev": "Kovanec",
        "obec": "572012",
        "pos": {
            "lat": 50.41770614463978,
            "lon": 14.776631576900806
        },
        "typ": "castObce"
    },
    {
        "id": "71340",
        "nazev": "Kovanice",
        "obec": "537373",
        "pos": {
            "lat": 50.16946587813165,
            "lon": 15.070794514599609
        },
        "typ": "castObce"
    },
    {
        "id": "71358",
        "nazev": "Kovansko",
        "obec": "537039",
        "pos": {
            "lat": 50.205974813228536,
            "lon": 15.061745346949
        },
        "typ": "castObce"
    },
    {
        "id": "71374",
        "nazev": "Hostín",
        "obec": "549517",
        "pos": {
            "lat": 49.5313336767643,
            "lon": 14.27127188941841
        },
        "typ": "castObce"
    },
    {
        "id": "71404",
        "nazev": "Radvánov",
        "obec": "549517",
        "pos": {
            "lat": 49.53107757485168,
            "lon": 14.257475294480011
        },
        "typ": "castObce"
    },
    {
        "id": "71421",
        "nazev": "Vepice",
        "obec": "549517",
        "pos": {
            "lat": 49.52509608371625,
            "lon": 14.302177366442823
        },
        "typ": "castObce"
    },
    {
        "id": "71463",
        "nazev": "Hrbokov",
        "obec": "571202",
        "pos": {
            "lat": 49.8673338487907,
            "lon": 15.69045649132474
        },
        "typ": "castObce"
    },
    {
        "id": "71471",
        "nazev": "Kovářov",
        "obec": "571202",
        "pos": {
            "lat": 49.8561719771656,
            "lon": 15.689818071124938
        },
        "typ": "castObce"
    },
    {
        "id": "184608",
        "nazev": "Vojnův Městec",
        "obec": "597091",
        "pos": {
            "lat": 49.679454542296284,
            "lon": 15.878284656865599
        },
        "typ": "castObce"
    },
    {
        "id": "184641",
        "nazev": "Zelený Háj",
        "obec": "539074",
        "pos": {
            "lat": 50.154404998739466,
            "lon": 12.304220539470784
        },
        "typ": "castObce"
    },
    {
        "id": "184659",
        "nazev": "Vojtěchov",
        "obec": "572501",
        "pos": {
            "lat": 49.788549540701275,
            "lon": 15.973501880692426
        },
        "typ": "castObce"
    },
    {
        "id": "184675",
        "nazev": "Volárna",
        "obec": "533882",
        "pos": {
            "lat": 50.09177749613924,
            "lon": 15.24044873938809
        },
        "typ": "castObce"
    },
    {
        "id": "184799",
        "nazev": "Voleč",
        "obec": "575992",
        "pos": {
            "lat": 50.117349447739606,
            "lon": 15.57269885390762
        },
        "typ": "castObce"
    },
    {
        "id": "184802",
        "nazev": "Bubovice",
        "obec": "541524",
        "pos": {
            "lat": 49.551696798601206,
            "lon": 13.928413833192634
        },
        "typ": "castObce"
    },
    {
        "id": "184829",
        "nazev": "Volenice",
        "obec": "541524",
        "pos": {
            "lat": 49.5477680814886,
            "lon": 13.883667244321842
        },
        "typ": "castObce"
    },
    {
        "id": "184853",
        "nazev": "Voletice",
        "obec": "571776",
        "pos": {
            "lat": 49.906908071312685,
            "lon": 16.03719202141586
        },
        "typ": "castObce"
    },
    {
        "id": "184870",
        "nazev": "Voletiny",
        "obec": "579025",
        "pos": {
            "lat": 50.58522544219572,
            "lon": 15.936343376471077
        },
        "typ": "castObce"
    },
    {
        "id": "184896",
        "nazev": "Nová Ves",
        "obec": "562220",
        "pos": {
            "lat": 50.74650229808102,
            "lon": 14.443716031932112
        },
        "typ": "castObce"
    },
    {
        "id": "184918",
        "nazev": "Šach",
        "obec": "547441",
        "pos": {
            "lat": 49.12538073547672,
            "lon": 15.358107320142413
        },
        "typ": "castObce"
    },
    {
        "id": "184985",
        "nazev": "Vonoklasy",
        "obec": "539830",
        "pos": {
            "lat": 49.95011502239591,
            "lon": 14.276694272082366
        },
        "typ": "castObce"
    },
    {
        "id": "184993",
        "nazev": "Lhoty",
        "obec": "572527",
        "pos": {
            "lat": 49.71366643617614,
            "lon": 15.945407707955516
        },
        "typ": "castObce"
    },
    {
        "id": "185019",
        "nazev": "Lysá",
        "obec": "530905",
        "pos": {
            "lat": 49.633617686790416,
            "lon": 14.662036121584814
        },
        "typ": "castObce"
    },
    {
        "id": "185035",
        "nazev": "Srbice",
        "obec": "530905",
        "pos": {
            "lat": 49.64855269613949,
            "lon": 14.630482620727411
        },
        "typ": "castObce"
    },
    {
        "id": "185060",
        "nazev": "Jamné",
        "obec": "544299",
        "pos": {
            "lat": 48.90556244665973,
            "lon": 14.40332188522383
        },
        "typ": "castObce"
    },
    {
        "id": "185086",
        "nazev": "Kroclov",
        "obec": "545261",
        "pos": {
            "lat": 48.90516329527298,
            "lon": 14.385353705680581
        },
        "typ": "castObce"
    },
    {
        "id": "185108",
        "nazev": "Vrábče",
        "obec": "545261",
        "pos": {
            "lat": 48.91734812934508,
            "lon": 14.375915029029187
        },
        "typ": "castObce"
    },
    {
        "id": "185124",
        "nazev": "Zahorčice",
        "obec": "544299",
        "pos": {
            "lat": 48.91621747171991,
            "lon": 14.403407907978071
        },
        "typ": "castObce"
    },
    {
        "id": "185167",
        "nazev": "Vraclav",
        "obec": "581151",
        "pos": {
            "lat": 49.968039810766726,
            "lon": 16.089968598788225
        },
        "typ": "castObce"
    },
    {
        "id": "185205",
        "nazev": "Orlov",
        "obec": "548022",
        "pos": {
            "lat": 49.95022321694824,
            "lon": 16.247007028659073
        },
        "typ": "castObce"
    },
    {
        "id": "185213",
        "nazev": "Vračovice",
        "obec": "548022",
        "pos": {
            "lat": 49.95259798337895,
            "lon": 16.252032437112156
        },
        "typ": "castObce"
    },
    {
        "id": "185221",
        "nazev": "Čechůvky",
        "obec": "589250",
        "pos": {
            "lat": 49.47323823110416,
            "lon": 17.16200055274994
        },
        "typ": "castObce"
    },
    {
        "id": "185256",
        "nazev": "Vraňany",
        "obec": "535303",
        "pos": {
            "lat": 50.317211095504554,
            "lon": 14.361652973405567
        },
        "typ": "castObce"
    },
    {
        "id": "185299",
        "nazev": "Vrančice",
        "obec": "564362",
        "pos": {
            "lat": 49.6106288905882,
            "lon": 14.041755377440177
        },
        "typ": "castObce"
    },
    {
        "id": "54666",
        "nazev": "Chudenín",
        "obec": "556386",
        "pos": {
            "lat": 49.29303962007248,
            "lon": 13.100797550889975
        },
        "typ": "castObce"
    },
    {
        "id": "54691",
        "nazev": "Suchý Kámen",
        "obec": "556386",
        "pos": {
            "lat": 49.268158068388196,
            "lon": 13.114083609973262
        },
        "typ": "castObce"
    },
    {
        "id": "36633",
        "nazev": "Loukov",
        "obec": "577073",
        "pos": {
            "lat": 50.6139647304851,
            "lon": 15.407483070828468
        },
        "typ": "castObce"
    },
    {
        "id": "36641",
        "nazev": "Rybnice",
        "obec": "577073",
        "pos": {
            "lat": 50.61756859230143,
            "lon": 15.397382663165397
        },
        "typ": "castObce"
    },
    {
        "id": "36650",
        "nazev": "Blanice",
        "obec": "550809",
        "pos": {
            "lat": 49.10069912844793,
            "lon": 14.073367609455671
        },
        "typ": "castObce"
    },
    {
        "id": "36676",
        "nazev": "Hájek",
        "obec": "554456",
        "pos": {
            "lat": 49.35275085580199,
            "lon": 13.002932876076441
        },
        "typ": "castObce"
    },
    {
        "id": "36692",
        "nazev": "Nová Víska",
        "obec": "538159",
        "pos": {
            "lat": 50.27198516802612,
            "lon": 12.927319187210495
        },
        "typ": "castObce"
    },
    {
        "id": "36706",
        "nazev": "Hajánky",
        "obec": "584002",
        "pos": {
            "lat": 49.37056165471905,
            "lon": 16.469031253808915
        },
        "typ": "castObce"
    },
    {
        "id": "36773",
        "nazev": "Hájov",
        "obec": "599808",
        "pos": {
            "lat": 49.6355646095197,
            "lon": 18.191097714916655
        },
        "typ": "castObce"
    },
    {
        "id": "36820",
        "nazev": "Halámky",
        "obec": "562807",
        "pos": {
            "lat": 48.85313688564868,
            "lon": 14.915124702232585
        },
        "typ": "castObce"
    },
    {
        "id": "36978",
        "nazev": "Halže",
        "obec": "560863",
        "pos": {
            "lat": 49.83101998339743,
            "lon": 12.57939347315802
        },
        "typ": "castObce"
    },
    {
        "id": "36994",
        "nazev": "Svobodka",
        "obec": "560863",
        "pos": {
            "lat": 49.8132571641884,
            "lon": 12.581301432219496
        },
        "typ": "castObce"
    },
    {
        "id": "37044",
        "nazev": "Útěchovice",
        "obec": "544337",
        "pos": {
            "lat": 50.70920296582565,
            "lon": 14.84122336167555
        },
        "typ": "castObce"
    },
    {
        "id": "37061",
        "nazev": "Janov",
        "obec": "567256",
        "pos": {
            "lat": 50.58564682678863,
            "lon": 13.5616975696486
        },
        "typ": "castObce"
    },
    {
        "id": "37117",
        "nazev": "Najdek",
        "obec": "595586",
        "pos": {
            "lat": 49.56815021707162,
            "lon": 15.888661870729923
        },
        "typ": "castObce"
    },
    {
        "id": "37125",
        "nazev": "Šlakhamry",
        "obec": "595586",
        "pos": {
            "lat": 49.572546008375475,
            "lon": 15.879150292045498
        },
        "typ": "castObce"
    },
    {
        "id": "37168",
        "nazev": "Myslechovice",
        "obec": "503444",
        "pos": {
            "lat": 49.6736977131103,
            "lon": 17.045969058407035
        },
        "typ": "castObce"
    },
    {
        "id": "145793",
        "nazev": "Řiště",
        "obec": "551627",
        "pos": {
            "lat": 49.48097231969244,
            "lon": 13.799817035083311
        },
        "typ": "castObce"
    },
    {
        "id": "145807",
        "nazev": "Řitka",
        "obec": "539651",
        "pos": {
            "lat": 49.89451415711043,
            "lon": 14.299233654543588
        },
        "typ": "castObce"
    },
    {
        "id": "145823",
        "nazev": "Skyšice",
        "obec": "535745",
        "pos": {
            "lat": 50.420667085024405,
            "lon": 15.104238572390194
        },
        "typ": "castObce"
    },
    {
        "id": "145866",
        "nazev": "Sádek",
        "obec": "510891",
        "pos": {
            "lat": 49.95223911579241,
            "lon": 17.747919999340777
        },
        "typ": "castObce"
    },
    {
        "id": "145882",
        "nazev": "Lesov",
        "obec": "555533",
        "pos": {
            "lat": 50.26735474945556,
            "lon": 12.910737700576986
        },
        "typ": "castObce"
    },
    {
        "id": "145891",
        "nazev": "Podlesí",
        "obec": "555533",
        "pos": {
            "lat": 50.27245445804387,
            "lon": 12.879039459100474
        },
        "typ": "castObce"
    },
    {
        "id": "145947",
        "nazev": "Velká Černá",
        "obec": "548731",
        "pos": {
            "lat": 49.51754362128039,
            "lon": 14.962496044307654
        },
        "typ": "castObce"
    },
    {
        "id": "145955",
        "nazev": "Salaš",
        "obec": "585068",
        "pos": {
            "lat": 49.17309924501521,
            "lon": 17.625657974024094
        },
        "typ": "castObce"
    },
    {
        "id": "138959",
        "nazev": "Rajhradice",
        "obec": "583766",
        "pos": {
            "lat": 49.092034562557664,
            "lon": 16.629331138538895
        },
        "typ": "castObce"
    },
    {
        "id": "139041",
        "nazev": "Rakousy",
        "obec": "577448",
        "pos": {
            "lat": 50.62032446280205,
            "lon": 15.187538507523847
        },
        "typ": "castObce"
    },
    {
        "id": "139068",
        "nazev": "Raková",
        "obec": "566942",
        "pos": {
            "lat": 49.7003219787861,
            "lon": 13.581943679443876
        },
        "typ": "castObce"
    },
    {
        "id": "139190",
        "nazev": "Rakůvka",
        "obec": "589969",
        "pos": {
            "lat": 49.60965678282994,
            "lon": 16.93758706342661
        },
        "typ": "castObce"
    },
    {
        "id": "139203",
        "nazev": "Rakvice",
        "obec": "584860",
        "pos": {
            "lat": 48.85811206468622,
            "lon": 16.813302808182854
        },
        "typ": "castObce"
    },
    {
        "id": "139220",
        "nazev": "Kuřívody",
        "obec": "562017",
        "pos": {
            "lat": 50.58550539623271,
            "lon": 14.804118138290658
        },
        "typ": "castObce"
    },
    {
        "id": "139246",
        "nazev": "Raná",
        "obec": "566659",
        "pos": {
            "lat": 50.41155905878671,
            "lon": 13.779261421596486
        },
        "typ": "castObce"
    },
    {
        "id": "139262",
        "nazev": "Raná",
        "obec": "572152",
        "pos": {
            "lat": 49.796404202450326,
            "lon": 15.964115576400442
        },
        "typ": "castObce"
    },
    {
        "id": "139297",
        "nazev": "Rankov",
        "obec": "568759",
        "pos": {
            "lat": 49.71393087009523,
            "lon": 15.615683833725562
        },
        "typ": "castObce"
    },
    {
        "id": "139319",
        "nazev": "Rantířov",
        "obec": "587788",
        "pos": {
            "lat": 49.408246485314784,
            "lon": 15.515160112939613
        },
        "typ": "castObce"
    },
    {
        "id": "139327",
        "nazev": "Rapotice",
        "obec": "591581",
        "pos": {
            "lat": 49.19221220018109,
            "lon": 16.253266352158903
        },
        "typ": "castObce"
    },
    {
        "id": "139416",
        "nazev": "Rasošky",
        "obec": "574376",
        "pos": {
            "lat": 50.32191338461383,
            "lon": 15.911668502288244
        },
        "typ": "castObce"
    },
    {
        "id": "139459",
        "nazev": "Rašín",
        "obec": "549274",
        "pos": {
            "lat": 50.33326063908762,
            "lon": 15.677917175642362
        },
        "typ": "castObce"
    },
    {
        "id": "139513",
        "nazev": "Rašov",
        "obec": "582255",
        "pos": {
            "lat": 49.41554516443427,
            "lon": 16.453725089279715
        },
        "typ": "castObce"
    },
    {
        "id": "139548",
        "nazev": "Rašovice",
        "obec": "537055",
        "pos": {
            "lat": 50.20706317533813,
            "lon": 15.117246804330083
        },
        "typ": "castObce"
    },
    {
        "id": "139556",
        "nazev": "Rašovice",
        "obec": "576859",
        "pos": {
            "lat": 50.14790200107182,
            "lon": 16.130861810277317
        },
        "typ": "castObce"
    },
    {
        "id": "139564",
        "nazev": "Rašovice",
        "obec": "593532",
        "pos": {
            "lat": 49.120964627573095,
            "lon": 16.94822220040674
        },
        "typ": "castObce"
    },
    {
        "id": "139572",
        "nazev": "Rataje",
        "obec": "530549",
        "pos": {
            "lat": 49.70406116932422,
            "lon": 14.97044575463054
        },
        "typ": "castObce"
    },
    {
        "id": "139602",
        "nazev": "Rataje",
        "obec": "552976",
        "pos": {
            "lat": 49.350143734106155,
            "lon": 14.445736621160005
        },
        "typ": "castObce"
    },
    {
        "id": "139629",
        "nazev": "Rataje",
        "obec": "588938",
        "pos": {
            "lat": 49.27130027081826,
            "lon": 17.335547984798847
        },
        "typ": "castObce"
    },
    {
        "id": "139688",
        "nazev": "Kbel",
        "obec": "513415",
        "pos": {
            "lat": 49.98822173597081,
            "lon": 15.143539476653578
        },
        "typ": "castObce"
    },
    {
        "id": "139700",
        "nazev": "Pašinka",
        "obec": "513423",
        "pos": {
            "lat": 49.99635080914313,
            "lon": 15.186191469819171
        },
        "typ": "castObce"
    },
    {
        "id": "139726",
        "nazev": "Sedlov",
        "obec": "533653",
        "pos": {
            "lat": 49.96326475621144,
            "lon": 15.152966713265467
        },
        "typ": "castObce"
    },
    {
        "id": "139742",
        "nazev": "Ratenice",
        "obec": "537748",
        "pos": {
            "lat": 50.09160938511753,
            "lon": 15.059255293118667
        },
        "typ": "castObce"
    },
    {
        "id": "139751",
        "nazev": "Ratiboř",
        "obec": "507784",
        "pos": {
            "lat": 49.14351550529496,
            "lon": 14.91502170893468
        },
        "typ": "castObce"
    },
    {
        "id": "139777",
        "nazev": "Hněvanice",
        "obec": "549452",
        "pos": {
            "lat": 49.51490737884657,
            "lon": 14.36634547535276
        },
        "typ": "castObce"
    },
    {
        "id": "139807",
        "nazev": "Záluží",
        "obec": "549452",
        "pos": {
            "lat": 49.5125997525608,
            "lon": 14.393365445766642
        },
        "typ": "castObce"
    },
    {
        "id": "139840",
        "nazev": "Ratiboř",
        "obec": "544787",
        "pos": {
            "lat": 49.36769344131159,
            "lon": 17.914986524269064
        },
        "typ": "castObce"
    },
    {
        "id": "75604",
        "nazev": "Lhýšov",
        "obec": "553204",
        "pos": {
            "lat": 49.59871062422407,
            "lon": 14.799244006518345
        },
        "typ": "castObce"
    },
    {
        "id": "75671",
        "nazev": "Mydlovary",
        "obec": "559105",
        "pos": {
            "lat": 49.84771501020403,
            "lon": 13.040955541591991
        },
        "typ": "castObce"
    },
    {
        "id": "75680",
        "nazev": "Něšov",
        "obec": "559334",
        "pos": {
            "lat": 49.883420681016304,
            "lon": 13.106880966367049
        },
        "typ": "castObce"
    },
    {
        "id": "75736",
        "nazev": "Bohouškovice",
        "obec": "545571",
        "pos": {
            "lat": 48.9235265980003,
            "lon": 14.314351003459945
        },
        "typ": "castObce"
    },
    {
        "id": "75752",
        "nazev": "Chmelná",
        "obec": "545571",
        "pos": {
            "lat": 48.93499139453259,
            "lon": 14.279107919022834
        },
        "typ": "castObce"
    },
    {
        "id": "75779",
        "nazev": "Mříč",
        "obec": "545571",
        "pos": {
            "lat": 48.90840503652402,
            "lon": 14.326477788927543
        },
        "typ": "castObce"
    },
    {
        "id": "75817",
        "nazev": "Křenice",
        "obec": "564991",
        "pos": {
            "lat": 50.03100205164616,
            "lon": 14.66851067291439
        },
        "typ": "castObce"
    },
    {
        "id": "75825",
        "nazev": "Biřkov",
        "obec": "578088",
        "pos": {
            "lat": 49.518046227197324,
            "lon": 13.230147455049558
        },
        "typ": "castObce"
    },
    {
        "id": "69159",
        "nazev": "Dubičná",
        "obec": "565814",
        "pos": {
            "lat": 50.614438628519146,
            "lon": 14.354627034815604
        },
        "typ": "castObce"
    },
    {
        "id": "69167",
        "nazev": "Konojedy",
        "obec": "565814",
        "pos": {
            "lat": 50.62785312695135,
            "lon": 14.351235552955162
        },
        "typ": "castObce"
    },
    {
        "id": "69213",
        "nazev": "Kopanina",
        "obec": "554707",
        "pos": {
            "lat": 50.196134682101444,
            "lon": 12.47105630829917
        },
        "typ": "castObce"
    },
    {
        "id": "69230",
        "nazev": "Doubrava",
        "obec": "554499",
        "pos": {
            "lat": 50.26055626905036,
            "lon": 12.23964826955473
        },
        "typ": "castObce"
    },
    {
        "id": "69248",
        "nazev": "Kamenná",
        "obec": "538795",
        "pos": {
            "lat": 50.25046250839748,
            "lon": 12.168649128026773
        },
        "typ": "castObce"
    },
    {
        "id": "69256",
        "nazev": "Kopaniny",
        "obec": "554499",
        "pos": {
            "lat": 50.26146258756631,
            "lon": 12.225944204751947
        },
        "typ": "castObce"
    },
    {
        "id": "69299",
        "nazev": "Kopidlno",
        "obec": "573060",
        "pos": {
            "lat": 50.330851044199996,
            "lon": 15.27029309978319
        },
        "typ": "castObce"
    },
    {
        "id": "8940",
        "nazev": "Jimlíkov",
        "obec": "555398",
        "pos": {
            "lat": 50.25408407353664,
            "lon": 12.78691378807471
        },
        "typ": "castObce"
    },
    {
        "id": "8966",
        "nazev": "Bradáčov",
        "obec": "552127",
        "pos": {
            "lat": 49.49101886535064,
            "lon": 14.871115038457328
        },
        "typ": "castObce"
    },
    {
        "id": "8974",
        "nazev": "Horní Světlá",
        "obec": "552127",
        "pos": {
            "lat": 49.48563773802619,
            "lon": 14.881778852241832
        },
        "typ": "castObce"
    },
    {
        "id": "8982",
        "nazev": "Bradlec",
        "obec": "570788",
        "pos": {
            "lat": 50.45135100207073,
            "lon": 14.910184728011044
        },
        "typ": "castObce"
    },
    {
        "id": "8991",
        "nazev": "Bradlecká Lhota",
        "obec": "577014",
        "pos": {
            "lat": 50.48857222519438,
            "lon": 15.396224794057478
        },
        "typ": "castObce"
    },
    {
        "id": "9008",
        "nazev": "Braňany",
        "obec": "567060",
        "pos": {
            "lat": 50.54294809048968,
            "lon": 13.700169923342733
        },
        "typ": "castObce"
    },
    {
        "id": "9016",
        "nazev": "Kaňkov",
        "obec": "567060",
        "pos": {
            "lat": 50.53873019384258,
            "lon": 13.73561028632647
        },
        "typ": "castObce"
    },
    {
        "id": "9032",
        "nazev": "Brandov",
        "obec": "567078",
        "pos": {
            "lat": 50.632001960765166,
            "lon": 13.390715069249133
        },
        "typ": "castObce"
    },
    {
        "id": "9229",
        "nazev": "Zápy",
        "obec": "505781",
        "pos": {
            "lat": 50.16499744301263,
            "lon": 14.680049873697575
        },
        "typ": "castObce"
    },
    {
        "id": "9253",
        "nazev": "Popovice",
        "obec": "538094",
        "pos": {
            "lat": 50.1776124652814,
            "lon": 14.625274389737072
        },
        "typ": "castObce"
    },
    {
        "id": "9270",
        "nazev": "Brandýs nad Orlicí",
        "obec": "579947",
        "pos": {
            "lat": 50.00194379852658,
            "lon": 16.285278966947793
        },
        "typ": "castObce"
    },
    {
        "id": "9288",
        "nazev": "Brandýsek",
        "obec": "532118",
        "pos": {
            "lat": 50.18922543087059,
            "lon": 14.161988960661269
        },
        "typ": "castObce"
    },
    {
        "id": "160458",
        "nazev": "Suchá Rudná",
        "obec": "597872",
        "pos": {
            "lat": 50.06321666531911,
            "lon": 17.358397914335942
        },
        "typ": "castObce"
    },
    {
        "id": "160512",
        "nazev": "Světlá nad Sázavou",
        "obec": "569569",
        "pos": {
            "lat": 49.66800815103367,
            "lon": 15.40393400895236
        },
        "typ": "castObce"
    },
    {
        "id": "160555",
        "nazev": "Hodky",
        "obec": "564427",
        "pos": {
            "lat": 50.71535945581569,
            "lon": 14.972945766197437
        },
        "typ": "castObce"
    },
    {
        "id": "160580",
        "nazev": "Světlice",
        "obec": "547999",
        "pos": {
            "lat": 49.56927365821256,
            "lon": 15.352679960037204
        },
        "typ": "castObce"
    },
    {
        "id": "160598",
        "nazev": "Světlický Dvůr",
        "obec": "547999",
        "pos": {
            "lat": 49.56307120632453,
            "lon": 15.34572163175387
        },
        "typ": "castObce"
    },
    {
        "id": "160601",
        "nazev": "Suš",
        "obec": "536253",
        "pos": {
            "lat": 48.72743229814333,
            "lon": 14.27016870838101
        },
        "typ": "castObce"
    },
    {
        "id": "160610",
        "nazev": "Svéraz",
        "obec": "536253",
        "pos": {
            "lat": 48.721178670217476,
            "lon": 14.29400415744692
        },
        "typ": "castObce"
    },
    {
        "id": "160628",
        "nazev": "Světlík",
        "obec": "545813",
        "pos": {
            "lat": 48.731656382414904,
            "lon": 14.21097375667043
        },
        "typ": "castObce"
    },
    {
        "id": "160652",
        "nazev": "Cikháj",
        "obec": "588016",
        "pos": {
            "lat": 49.64484669121117,
            "lon": 15.967385366890147
        },
        "typ": "castObce"
    },
    {
        "id": "160661",
        "nazev": "Světnov",
        "obec": "596841",
        "pos": {
            "lat": 49.62053049335607,
            "lon": 15.955213167403485
        },
        "typ": "castObce"
    },
    {
        "id": "160687",
        "nazev": "Svídnice",
        "obec": "537128",
        "pos": {
            "lat": 50.26335536947772,
            "lon": 15.181949778328836
        },
        "typ": "castObce"
    },
    {
        "id": "160695",
        "nazev": "Práčov",
        "obec": "572331",
        "pos": {
            "lat": 49.875724689276666,
            "lon": 15.809763009313642
        },
        "typ": "castObce"
    },
    {
        "id": "160717",
        "nazev": "Trpišov",
        "obec": "572268",
        "pos": {
            "lat": 49.89006803270907,
            "lon": 15.797987156261973
        },
        "typ": "castObce"
    },
    {
        "id": "160725",
        "nazev": "Močítka",
        "obec": "564435",
        "pos": {
            "lat": 50.58123877799515,
            "lon": 15.042228563675996
        },
        "typ": "castObce"
    },
    {
        "id": "160768",
        "nazev": "Svinary",
        "obec": "569810",
        "pos": {
            "lat": 50.21082553195664,
            "lon": 15.904065329605087
        },
        "typ": "castObce"
    },
    {
        "id": "160784",
        "nazev": "Lhotka",
        "obec": "531812",
        "pos": {
            "lat": 49.90254720062232,
            "lon": 14.19019139477588
        },
        "typ": "castObce"
    },
    {
        "id": "160806",
        "nazev": "Svinařov",
        "obec": "532908",
        "pos": {
            "lat": 50.181307324680304,
            "lon": 14.050267253476589
        },
        "typ": "castObce"
    },
    {
        "id": "160857",
        "nazev": "Svinčany",
        "obec": "575771",
        "pos": {
            "lat": 49.976587074737886,
            "lon": 15.639510300891201
        },
        "typ": "castObce"
    },
    {
        "id": "160865",
        "nazev": "Svinětice",
        "obec": "550809",
        "pos": {
            "lat": 49.14174533036136,
            "lon": 14.095210776170015
        },
        "typ": "castObce"
    },
    {
        "id": "160873",
        "nazev": "Svinný",
        "obec": "568759",
        "pos": {
            "lat": 49.71378384942469,
            "lon": 15.634080127089076
        },
        "typ": "castObce"
    },
    {
        "id": "160890",
        "nazev": "Kundratice",
        "obec": "553182",
        "pos": {
            "lat": 49.177797696307216,
            "lon": 14.643888032331668
        },
        "typ": "castObce"
    },
    {
        "id": "160938",
        "nazev": "Sasina",
        "obec": "582441",
        "pos": {
            "lat": 49.514274380423345,
            "lon": 16.584060102243118
        },
        "typ": "castObce"
    },
    {
        "id": "161128",
        "nazev": "Svobodné Dvory",
        "obec": "569810",
        "pos": {
            "lat": 50.220074680058865,
            "lon": 15.79783112481152
        },
        "typ": "castObce"
    },
    {
        "id": "161161",
        "nazev": "Tample",
        "obec": "577561",
        "pos": {
            "lat": 50.54668225400025,
            "lon": 15.467124746400344
        },
        "typ": "castObce"
    },
    {
        "id": "161187",
        "nazev": "Svojetín",
        "obec": "542458",
        "pos": {
            "lat": 50.19001386281803,
            "lon": 13.620909434876287
        },
        "typ": "castObce"
    },
    {
        "id": "161241",
        "nazev": "Bošice",
        "obec": "533726",
        "pos": {
            "lat": 50.01564975105037,
            "lon": 15.032459337933407
        },
        "typ": "castObce"
    },
    {
        "id": "161268",
        "nazev": "Krychnov",
        "obec": "599484",
        "pos": {
            "lat": 50.00596100547173,
            "lon": 15.057655342147518
        },
        "typ": "castObce"
    },
    {
        "id": "161284",
        "nazev": "Poboří",
        "obec": "533581",
        "pos": {
            "lat": 50.024045815859544,
            "lon": 15.049025476774995
        },
        "typ": "castObce"
    },
    {
        "id": "161292",
        "nazev": "Svojšice",
        "obec": "533726",
        "pos": {
            "lat": 50.00270281957045,
            "lon": 15.041484920706278
        },
        "typ": "castObce"
    },
    {
        "id": "161314",
        "nazev": "Kletice",
        "obec": "564273",
        "pos": {
            "lat": 49.5796998395633,
            "lon": 14.048686173269903
        },
        "typ": "castObce"
    },
    {
        "id": "84875",
        "nazev": "Vojtěchov",
        "obec": "596051",
        "pos": {
            "lat": 49.5667420721558,
            "lon": 16.161234407994126
        },
        "typ": "castObce"
    },
    {
        "id": "84883",
        "nazev": "Lískovec",
        "obec": "588601",
        "pos": {
            "lat": 49.12276034756961,
            "lon": 17.181054068252873
        },
        "typ": "castObce"
    },
    {
        "id": "84891",
        "nazev": "Lískovec",
        "obec": "598003",
        "pos": {
            "lat": 49.709858903014066,
            "lon": 18.33076758228834
        },
        "typ": "castObce"
    },
    {
        "id": "84921",
        "nazev": "Lišany",
        "obec": "542016",
        "pos": {
            "lat": 50.14734542165301,
            "lon": 13.741927563683173
        },
        "typ": "castObce"
    },
    {
        "id": "84956",
        "nazev": "Levonice",
        "obec": "566624",
        "pos": {
            "lat": 50.338008579029264,
            "lon": 13.674952368691267
        },
        "typ": "castObce"
    },
    {
        "id": "84999",
        "nazev": "Líšina",
        "obec": "540617",
        "pos": {
            "lat": 49.603493498974615,
            "lon": 13.164715010650184
        },
        "typ": "castObce"
    },
    {
        "id": "85014",
        "nazev": "Líšná",
        "obec": "559962",
        "pos": {
            "lat": 49.88500425863288,
            "lon": 13.806413725938892
        },
        "typ": "castObce"
    },
    {
        "id": "85073",
        "nazev": "Lišnice",
        "obec": "567248",
        "pos": {
            "lat": 50.45444513840668,
            "lon": 13.633006458770184
        },
        "typ": "castObce"
    },
    {
        "id": "85120",
        "nazev": "Vyšehorky",
        "obec": "540161",
        "pos": {
            "lat": 49.76887959752851,
            "lon": 16.87587531757377
        },
        "typ": "castObce"
    },
    {
        "id": "85154",
        "nazev": "Horní Miletín",
        "obec": "544779",
        "pos": {
            "lat": 49.01582321139746,
            "lon": 14.67335240759703
        },
        "typ": "castObce"
    },
    {
        "id": "85171",
        "nazev": "Lišov",
        "obec": "544779",
        "pos": {
            "lat": 49.01596903195508,
            "lon": 14.608379087427613
        },
        "typ": "castObce"
    },
    {
        "id": "85189",
        "nazev": "Líšťany",
        "obec": "559172",
        "pos": {
            "lat": 49.8310730352021,
            "lon": 13.181094857409022
        },
        "typ": "castObce"
    },
    {
        "id": "85201",
        "nazev": "Náklov",
        "obec": "559172",
        "pos": {
            "lat": 49.834776949407896,
            "lon": 13.174372232093367
        },
        "typ": "castObce"
    },
    {
        "id": "85227",
        "nazev": "Líšťany",
        "obec": "546879",
        "pos": {
            "lat": 50.312487937021885,
            "lon": 13.799919599568032
        },
        "typ": "castObce"
    },
    {
        "id": "85235",
        "nazev": "Běleč",
        "obec": "531456",
        "pos": {
            "lat": 49.91448258785819,
            "lon": 14.179054081426644
        },
        "typ": "castObce"
    },
    {
        "id": "85251",
        "nazev": "Leč",
        "obec": "531456",
        "pos": {
            "lat": 49.89133725474281,
            "lon": 14.155344713685004
        },
        "typ": "castObce"
    },
    {
        "id": "85260",
        "nazev": "Liteň",
        "obec": "531456",
        "pos": {
            "lat": 49.903705993557715,
            "lon": 14.148984529263544
        },
        "typ": "castObce"
    },
    {
        "id": "85286",
        "nazev": "Litětiny",
        "obec": "574911",
        "pos": {
            "lat": 50.02061745733671,
            "lon": 16.017564119801527
        },
        "typ": "castObce"
    },
    {
        "id": "85294",
        "nazev": "Litice",
        "obec": "561410",
        "pos": {
            "lat": 50.61340174472465,
            "lon": 14.439301986342972
        },
        "typ": "castObce"
    },
    {
        "id": "85324",
        "nazev": "Nouzov",
        "obec": "546470",
        "pos": {
            "lat": 50.36738175791858,
            "lon": 15.835007610591076
        },
        "typ": "castObce"
    },
    {
        "id": "85375",
        "nazev": "Litohoř",
        "obec": "550507",
        "pos": {
            "lat": 49.06683563250189,
            "lon": 15.768419088598307
        },
        "typ": "castObce"
    },
    {
        "id": "85391",
        "nazev": "Neuslužice",
        "obec": "551341",
        "pos": {
            "lat": 49.166084091359906,
            "lon": 13.943262880945358
        },
        "typ": "castObce"
    },
    {
        "id": "85456",
        "nazev": "Předměstí",
        "obec": "564567",
        "pos": {
            "lat": 50.53753351436091,
            "lon": 14.135389351942973
        },
        "typ": "castObce"
    },
    {
        "id": "85685",
        "nazev": "Lány",
        "obec": "578347",
        "pos": {
            "lat": 49.880323815784344,
            "lon": 16.29834502282244
        },
        "typ": "castObce"
    },
    {
        "id": "85707",
        "nazev": "Záhradí",
        "obec": "578347",
        "pos": {
            "lat": 49.87353129755003,
            "lon": 16.31847991384734
        },
        "typ": "castObce"
    },
    {
        "id": "88684",
        "nazev": "Luká",
        "obec": "503622",
        "pos": {
            "lat": 49.64914420570728,
            "lon": 16.947277313732513
        },
        "typ": "castObce"
    },
    {
        "id": "88692",
        "nazev": "Veselíčko",
        "obec": "503622",
        "pos": {
            "lat": 49.66911986434379,
            "lon": 16.933810653470807
        },
        "typ": "castObce"
    },
    {
        "id": "88714",
        "nazev": "Otín",
        "obec": "587478",
        "pos": {
            "lat": 49.38540530264964,
            "lon": 15.688782771277497
        },
        "typ": "castObce"
    },
    {
        "id": "88773",
        "nazev": "Lukavec",
        "obec": "548332",
        "pos": {
            "lat": 49.565408536521865,
            "lon": 14.990412418982306
        },
        "typ": "castObce"
    },
    {
        "id": "88790",
        "nazev": "Lukavec",
        "obec": "565237",
        "pos": {
            "lat": 50.50164041468279,
            "lon": 14.085692261098055
        },
        "typ": "castObce"
    },
    {
        "id": "88803",
        "nazev": "Lukavec",
        "obec": "599352",
        "pos": {
            "lat": 49.75177296679259,
            "lon": 17.9199082333917
        },
        "typ": "castObce"
    },
    {
        "id": "88811",
        "nazev": "Černín",
        "obec": "573141",
        "pos": {
            "lat": 50.402866097687784,
            "lon": 15.601609849866199
        },
        "typ": "castObce"
    },
    {
        "id": "88854",
        "nazev": "Lukavice",
        "obec": "576492",
        "pos": {
            "lat": 50.20022657726833,
            "lon": 16.293642290509396
        },
        "typ": "castObce"
    },
    {
        "id": "88862",
        "nazev": "Lukavice",
        "obec": "580627",
        "pos": {
            "lat": 50.06028876184687,
            "lon": 16.48207211172729
        },
        "typ": "castObce"
    },
    {
        "id": "88871",
        "nazev": "Lukavice",
        "obec": "540234",
        "pos": {
            "lat": 49.82290452189625,
            "lon": 16.920397960900264
        },
        "typ": "castObce"
    },
    {
        "id": "103861",
        "nazev": "Neštěmice",
        "obec": "554804",
        "pos": {
            "lat": 50.67229405335822,
            "lon": 14.10264245697042
        },
        "typ": "castObce"
    },
    {
        "id": "103896",
        "nazev": "Nětčice",
        "obec": "589195",
        "pos": {
            "lat": 49.24896695638344,
            "lon": 17.310954188684594
        },
        "typ": "castObce"
    },
    {
        "id": "103918",
        "nazev": "Netín",
        "obec": "596183",
        "pos": {
            "lat": 49.41301142083866,
            "lon": 15.950702306576025
        },
        "typ": "castObce"
    },
    {
        "id": "103951",
        "nazev": "Petrův Dvůr",
        "obec": "550442",
        "pos": {
            "lat": 49.05036140783123,
            "lon": 14.179515216028648
        },
        "typ": "castObce"
    },
    {
        "id": "103977",
        "nazev": "Netonice",
        "obec": "550833",
        "pos": {
            "lat": 49.183847710380796,
            "lon": 14.045742250284073
        },
        "typ": "castObce"
    },
    {
        "id": "103985",
        "nazev": "Radějovice",
        "obec": "536423",
        "pos": {
            "lat": 49.18626432444804,
            "lon": 14.0264399169201
        },
        "typ": "castObce"
    },